{
    "type": "FeatureCollection",
    "features": [
        {
            "type": "Feature",
            "geometry": {
                "type": "Point",
                "coordinates": [
                    -74.164581,
                    40.5446
                ]
            },
            "properties": {
                "STATION": "ELTINGVILLE PK Z"
            }
        },
        {
            "type": "Feature",
            "geometry": {
                "type": "Point",
                "coordinates": [
                    -74.155533,
                    40.738879
                ]
            },
            "properties": {
                "STATION": "HARRISON 1"
            }
        },
        {
            "type": "Feature",
            "geometry": {
                "type": "Point",
                "coordinates": [
                    -74.074824,
                    40.636948
                ]
            },
            "properties": {
                "STATION": "TOMPKINSVILLE 1"
            }
        },
        {
            "type": "Feature",
            "geometry": {
                "type": "Point",
                "coordinates": [
                    -74.073622,
                    40.643738
                ]
            },
            "properties": {
                "STATION": "ST. GEORGE 1"
            }
        },
        {
            "type": "Feature",
            "geometry": {
                "type": "Point",
                "coordinates": [
                    -74.063915,
                    40.732102
                ]
            },
            "properties": {
                "STATION": "JOURNAL SQUARE 1"
            }
        },
        {
            "type": "Feature",
            "geometry": {
                "type": "Point",
                "coordinates": [
                    -74.042616,
                    40.719876
                ]
            },
            "properties": {
                "STATION": "GROVE STREET 1"
            }
        },
        {
            "type": "Feature",
            "geometry": {
                "type": "Point",
                "coordinates": [
                    -74.033024,
                    40.716737
                ]
            },
            "properties": {
                "STATION": "EXCHANGE PLACE 1"
            }
        },
        {
            "type": "Feature",
            "geometry": {
                "type": "Point",
                "coordinates": [
                    -74.030964,
                    40.616624
                ]
            },
            "properties": {
                "STATION": "BAY RIDGE-95 ST R"
            }
        },
        {
            "type": "Feature",
            "geometry": {
                "type": "Point",
                "coordinates": [
                    -74.028368,
                    40.622715
                ]
            },
            "properties": {
                "STATION": "86 ST R"
            }
        },
        {
            "type": "Feature",
            "geometry": {
                "type": "Point",
                "coordinates": [
                    -74.025514,
                    40.629702
                ]
            },
            "properties": {
                "STATION": "77 ST R"
            }
        },
        {
            "type": "Feature",
            "geometry": {
                "type": "Point",
                "coordinates": [
                    -74.023411,
                    40.634945
                ]
            },
            "properties": {
                "STATION": "BAY RIDGE AVE R"
            }
        },
        {
            "type": "Feature",
            "geometry": {
                "type": "Point",
                "coordinates": [
                    -74.017972,
                    40.641426
                ]
            },
            "properties": {
                "STATION": "59 ST NR"
            }
        },
        {
            "type": "Feature",
            "geometry": {
                "type": "Point",
                "coordinates": [
                    -74.014099,
                    40.704782
                ]
            },
            "properties": {
                "STATION": "BOWLING GREEN 45"
            }
        },
        {
            "type": "Feature",
            "geometry": {
                "type": "Point",
                "coordinates": [
                    -74.014034,
                    40.644959
                ]
            },
            "properties": {
                "STATION": "53 ST R"
            }
        },
        {
            "type": "Feature",
            "geometry": {
                "type": "Point",
                "coordinates": [
                    -74.013691,
                    40.70784
                ]
            },
            "properties": {
                "STATION": "RECTOR ST 1"
            }
        },
        {
            "type": "Feature",
            "geometry": {
                "type": "Point",
                "coordinates": [
                    -74.013391,
                    40.707222
                ]
            },
            "properties": {
                "STATION": "RECTOR ST R"
            }
        },
        {
            "type": "Feature",
            "geometry": {
                "type": "Point",
                "coordinates": [
                    -74.013273,
                    40.704591
                ]
            },
            "properties": {
                "STATION": "2 BDWY CUST SRV 45"
            }
        },
        {
            "type": "Feature",
            "geometry": {
                "type": "Point",
                "coordinates": [
                    -74.011867,
                    40.707466
                ]
            },
            "properties": {
                "STATION": "WALL ST 45"
            }
        },
        {
            "type": "Feature",
            "geometry": {
                "type": "Point",
                "coordinates": [
                    -74.011717,
                    40.635011
                ]
            },
            "properties": {
                "STATION": "8 AVE N"
            }
        },
        {
            "type": "Feature",
            "geometry": {
                "type": "Point",
                "coordinates": [
                    -74.011324,
                    40.710454
                ]
            },
            "properties": {
                "STATION": "CORTLANDT ST 1"
            }
        },
        {
            "type": "Feature",
            "geometry": {
                "type": "Point",
                "coordinates": [
                    -74.011052,
                    40.710662
                ]
            },
            "properties": {
                "STATION": "CORTLANDT ST R"
            }
        },
        {
            "type": "Feature",
            "geometry": {
                "type": "Point",
                "coordinates": [
                    -74.011052,
                    40.706539
                ]
            },
            "properties": {
                "STATION": "BROAD ST JZ"
            }
        },
        {
            "type": "Feature",
            "geometry": {
                "type": "Point",
                "coordinates": [
                    -74.010708,
                    40.711638
                ]
            },
            "properties": {
                "STATION": "PATH WTC 1"
            }
        },
        {
            "type": "Feature",
            "geometry": {
                "type": "Point",
                "coordinates": [
                    -74.010708,
                    40.711638
                ]
            },
            "properties": {
                "STATION": "PATH WTC 2 1"
            }
        },
        {
            "type": "Feature",
            "geometry": {
                "type": "Point",
                "coordinates": [
                    -74.010086,
                    40.648866
                ]
            },
            "properties": {
                "STATION": "45 ST R"
            }
        },
        {
            "type": "Feature",
            "geometry": {
                "type": "Point",
                "coordinates": [
                    -74.009807,
                    40.712557
                ]
            },
            "properties": {
                "STATION": "WORLD TRADE CTR 23ACE"
            }
        },
        {
            "type": "Feature",
            "geometry": {
                "type": "Point",
                "coordinates": [
                    -74.009335,
                    40.715436
                ]
            },
            "properties": {
                "STATION": "CHAMBERS ST 123"
            }
        },
        {
            "type": "Feature",
            "geometry": {
                "type": "Point",
                "coordinates": [
                    -74.009056,
                    40.706864
                ]
            },
            "properties": {
                "STATION": "WALL ST 23"
            }
        },
        {
            "type": "Feature",
            "geometry": {
                "type": "Point",
                "coordinates": [
                    -74.008777,
                    40.713061
                ]
            },
            "properties": {
                "STATION": "PARK PLACE 23ACE"
            }
        },
        {
            "type": "Feature",
            "geometry": {
                "type": "Point",
                "coordinates": [
                    -74.008563,
                    40.71433
                ]
            },
            "properties": {
                "STATION": "CHAMBERS ST ACE23"
            }
        },
        {
            "type": "Feature",
            "geometry": {
                "type": "Point",
                "coordinates": [
                    -74.007983,
                    40.709938
                ]
            },
            "properties": {
                "STATION": "FULTON ST ACJZ2345"
            }
        },
        {
            "type": "Feature",
            "geometry": {
                "type": "Point",
                "coordinates": [
                    -74.007983,
                    40.709938
                ]
            },
            "properties": {
                "STATION": "FULTON ST 2345ACJZ"
            }
        },
        {
            "type": "Feature",
            "geometry": {
                "type": "Point",
                "coordinates": [
                    -74.007232,
                    40.713086
                ]
            },
            "properties": {
                "STATION": "MURRAY ST-B'WAY R"
            }
        },
        {
            "type": "Feature",
            "geometry": {
                "type": "Point",
                "coordinates": [
                    -74.006953,
                    40.719323
                ]
            },
            "properties": {
                "STATION": "FRANKLIN ST 1"
            }
        },
        {
            "type": "Feature",
            "geometry": {
                "type": "Point",
                "coordinates": [
                    -74.006267,
                    40.722819
                ]
            },
            "properties": {
                "STATION": "CANAL ST 1"
            }
        },
        {
            "type": "Feature",
            "geometry": {
                "type": "Point",
                "coordinates": [
                    -74.005387,
                    40.631428
                ]
            },
            "properties": {
                "STATION": "FT HAMILTON PKY N"
            }
        },
        {
            "type": "Feature",
            "geometry": {
                "type": "Point",
                "coordinates": [
                    -74.005344,
                    40.728202
                ]
            },
            "properties": {
                "STATION": "HOUSTON ST 1"
            }
        },
        {
            "type": "Feature",
            "geometry": {
                "type": "Point",
                "coordinates": [
                    -74.005237,
                    40.720852
                ]
            },
            "properties": {
                "STATION": "CANAL ST ACE"
            }
        },
        {
            "type": "Feature",
            "geometry": {
                "type": "Point",
                "coordinates": [
                    -74.003917,
                    40.713159
                ]
            },
            "properties": {
                "STATION": "CHAMBERS ST 456JZ"
            }
        },
        {
            "type": "Feature",
            "geometry": {
                "type": "Point",
                "coordinates": [
                    -74.003917,
                    40.713159
                ]
            },
            "properties": {
                "STATION": "CHAMBERS ST JZ456"
            }
        },
        {
            "type": "Feature",
            "geometry": {
                "type": "Point",
                "coordinates": [
                    -74.003917,
                    40.713159
                ]
            },
            "properties": {
                "STATION": "BROOKLYN BRIDGE 456JZ"
            }
        },
        {
            "type": "Feature",
            "geometry": {
                "type": "Point",
                "coordinates": [
                    -74.003917,
                    40.713159
                ]
            },
            "properties": {
                "STATION": "BROOKLYN BRIDGE JZ456"
            }
        },
        {
            "type": "Feature",
            "geometry": {
                "type": "Point",
                "coordinates": [
                    -74.003627,
                    40.726202
                ]
            },
            "properties": {
                "STATION": "SPRING ST CE"
            }
        },
        {
            "type": "Feature",
            "geometry": {
                "type": "Point",
                "coordinates": [
                    -74.003477,
                    40.65515
                ]
            },
            "properties": {
                "STATION": "36 ST DNR"
            }
        },
        {
            "type": "Feature",
            "geometry": {
                "type": "Point",
                "coordinates": [
                    -74.002898,
                    40.733405
                ]
            },
            "properties": {
                "STATION": "CHRISTOPHER ST 1"
            }
        },
        {
            "type": "Feature",
            "geometry": {
                "type": "Point",
                "coordinates": [
                    -74.002104,
                    40.740388
                ]
            },
            "properties": {
                "STATION": "8 AVE ACEL"
            }
        },
        {
            "type": "Feature",
            "geometry": {
                "type": "Point",
                "coordinates": [
                    -74.002104,
                    40.740388
                ]
            },
            "properties": {
                "STATION": "14 ST ACEL"
            }
        },
        {
            "type": "Feature",
            "geometry": {
                "type": "Point",
                "coordinates": [
                    -74.001782,
                    40.607958
                ]
            },
            "properties": {
                "STATION": "18 AVE D"
            }
        },
        {
            "type": "Feature",
            "geometry": {
                "type": "Point",
                "coordinates": [
                    -74.000977,
                    40.718697
                ]
            },
            "properties": {
                "STATION": "CANAL ST JNQRZ6"
            }
        },
        {
            "type": "Feature",
            "geometry": {
                "type": "Point",
                "coordinates": [
                    -74.000645,
                    40.613513
                ]
            },
            "properties": {
                "STATION": "79 ST D"
            }
        },
        {
            "type": "Feature",
            "geometry": {
                "type": "Point",
                "coordinates": [
                    -74.000559,
                    40.732251
                ]
            },
            "properties": {
                "STATION": "W 4 ST-WASH SQ ABCDEFM"
            }
        },
        {
            "type": "Feature",
            "geometry": {
                "type": "Point",
                "coordinates": [
                    -73.998842,
                    40.619588
                ]
            },
            "properties": {
                "STATION": "71 ST D"
            }
        },
        {
            "type": "Feature",
            "geometry": {
                "type": "Point",
                "coordinates": [
                    -73.998456,
                    40.604798
                ]
            },
            "properties": {
                "STATION": "20 AVE D"
            }
        },
        {
            "type": "Feature",
            "geometry": {
                "type": "Point",
                "coordinates": [
                    -73.998381,
                    40.738007
                ]
            },
            "properties": {
                "STATION": "14 ST 123FLM"
            }
        },
        {
            "type": "Feature",
            "geometry": {
                "type": "Point",
                "coordinates": [
                    -73.998059,
                    40.660481
                ]
            },
            "properties": {
                "STATION": "25 ST R"
            }
        },
        {
            "type": "Feature",
            "geometry": {
                "type": "Point",
                "coordinates": [
                    -73.998005,
                    40.745924
                ]
            },
            "properties": {
                "STATION": "23 ST CE"
            }
        },
        {
            "type": "Feature",
            "geometry": {
                "type": "Point",
                "coordinates": [
                    -73.997877,
                    40.741096
                ]
            },
            "properties": {
                "STATION": "18 ST 1"
            }
        },
        {
            "type": "Feature",
            "geometry": {
                "type": "Point",
                "coordinates": [
                    -73.997684,
                    40.724332
                ]
            },
            "properties": {
                "STATION": "PRINCE ST-B'WAY NR"
            }
        },
        {
            "type": "Feature",
            "geometry": {
                "type": "Point",
                "coordinates": [
                    -73.997211,
                    40.722397
                ]
            },
            "properties": {
                "STATION": "SPRING ST 6"
            }
        },
        {
            "type": "Feature",
            "geometry": {
                "type": "Point",
                "coordinates": [
                    -73.9969,
                    40.737348
                ]
            },
            "properties": {
                "STATION": "6 AVE FLM123"
            }
        },
        {
            "type": "Feature",
            "geometry": {
                "type": "Point",
                "coordinates": [
                    -73.9969,
                    40.737348
                ]
            },
            "properties": {
                "STATION": "14 ST-6 AVE FLM123"
            }
        },
        {
            "type": "Feature",
            "geometry": {
                "type": "Point",
                "coordinates": [
                    -73.996785,
                    40.737434
                ]
            },
            "properties": {
                "STATION": "14TH STREET 1"
            }
        },
        {
            "type": "Feature",
            "geometry": {
                "type": "Point",
                "coordinates": [
                    -73.996632,
                    40.625419
                ]
            },
            "properties": {
                "STATION": "NEW UTRECHT AVE ND"
            }
        },
        {
            "type": "Feature",
            "geometry": {
                "type": "Point",
                "coordinates": [
                    -73.996204,
                    40.725297
                ]
            },
            "properties": {
                "STATION": "BROADWAY/LAFAY BDFQ6"
            }
        },
        {
            "type": "Feature",
            "geometry": {
                "type": "Point",
                "coordinates": [
                    -73.996139,
                    40.673714
                ]
            },
            "properties": {
                "STATION": "SMITH-9 ST FG"
            }
        },
        {
            "type": "Feature",
            "geometry": {
                "type": "Point",
                "coordinates": [
                    -73.995645,
                    40.725665
                ]
            },
            "properties": {
                "STATION": "BLEECKER ST 6DF"
            }
        },
        {
            "type": "Feature",
            "geometry": {
                "type": "Point",
                "coordinates": [
                    -73.995624,
                    40.744071
                ]
            },
            "properties": {
                "STATION": "23 ST 1"
            }
        },
        {
            "type": "Feature",
            "geometry": {
                "type": "Point",
                "coordinates": [
                    -73.995473,
                    40.631412
                ]
            },
            "properties": {
                "STATION": "55 ST D"
            }
        },
        {
            "type": "Feature",
            "geometry": {
                "type": "Point",
                "coordinates": [
                    -73.99498,
                    40.680231
                ]
            },
            "properties": {
                "STATION": "CARROLL ST FG"
            }
        },
        {
            "type": "Feature",
            "geometry": {
                "type": "Point",
                "coordinates": [
                    -73.994765,
                    40.636232
                ]
            },
            "properties": {
                "STATION": "50 ST D"
            }
        },
        {
            "type": "Feature",
            "geometry": {
                "type": "Point",
                "coordinates": [
                    -73.994551,
                    40.646343
                ]
            },
            "properties": {
                "STATION": "9 AVE D"
            }
        },
        {
            "type": "Feature",
            "geometry": {
                "type": "Point",
                "coordinates": [
                    -73.994229,
                    40.640872
                ]
            },
            "properties": {
                "STATION": "FT HAMILTON PKY D"
            }
        },
        {
            "type": "Feature",
            "geometry": {
                "type": "Point",
                "coordinates": [
                    -73.994164,
                    40.718542
                ]
            },
            "properties": {
                "STATION": "GRAND ST BD"
            }
        },
        {
            "type": "Feature",
            "geometry": {
                "type": "Point",
                "coordinates": [
                    -73.994014,
                    40.720315
                ]
            },
            "properties": {
                "STATION": "BOWERY JZ"
            }
        },
        {
            "type": "Feature",
            "geometry": {
                "type": "Point",
                "coordinates": [
                    -73.993821,
                    40.601898
                ]
            },
            "properties": {
                "STATION": "BAY PARKWAY D"
            }
        },
        {
            "type": "Feature",
            "geometry": {
                "type": "Point",
                "coordinates": [
                    -73.993456,
                    40.752247
                ]
            },
            "properties": {
                "STATION": "34 ST-PENN STA ACE"
            }
        },
        {
            "type": "Feature",
            "geometry": {
                "type": "Point",
                "coordinates": [
                    -73.99336,
                    40.747224
                ]
            },
            "properties": {
                "STATION": "28 ST 1"
            }
        },
        {
            "type": "Feature",
            "geometry": {
                "type": "Point",
                "coordinates": [
                    -73.992984,
                    40.750264
                ]
            },
            "properties": {
                "STATION": "34 ST-PENN STA 123ACE"
            }
        },
        {
            "type": "Feature",
            "geometry": {
                "type": "Point",
                "coordinates": [
                    -73.992909,
                    40.742933
                ]
            },
            "properties": {
                "STATION": "TWENTY THIRD ST 1"
            }
        },
        {
            "type": "Feature",
            "geometry": {
                "type": "Point",
                "coordinates": [
                    -73.992888,
                    40.697356
                ]
            },
            "properties": {
                "STATION": "CLARK ST 23"
            }
        },
        {
            "type": "Feature",
            "geometry": {
                "type": "Point",
                "coordinates": [
                    -73.992877,
                    40.665405
                ]
            },
            "properties": {
                "STATION": "PROSPECT AVE R"
            }
        },
        {
            "type": "Feature",
            "geometry": {
                "type": "Point",
                "coordinates": [
                    -73.99277,
                    40.742868
                ]
            },
            "properties": {
                "STATION": "23 ST-6 AVE FM"
            }
        },
        {
            "type": "Feature",
            "geometry": {
                "type": "Point",
                "coordinates": [
                    -73.992705,
                    40.730348
                ]
            },
            "properties": {
                "STATION": "8 ST-B'WAY NYU NR"
            }
        },
        {
            "type": "Feature",
            "geometry": {
                "type": "Point",
                "coordinates": [
                    -73.991096,
                    40.750329
                ]
            },
            "properties": {
                "STATION": "34 ST-PENN STA 123"
            }
        },
        {
            "type": "Feature",
            "geometry": {
                "type": "Point",
                "coordinates": [
                    -73.991042,
                    40.730056
                ]
            },
            "properties": {
                "STATION": "ASTOR PLACE 6"
            }
        },
        {
            "type": "Feature",
            "geometry": {
                "type": "Point",
                "coordinates": [
                    -73.990881,
                    40.686154
                ]
            },
            "properties": {
                "STATION": "BERGEN ST FG"
            }
        },
        {
            "type": "Feature",
            "geometry": {
                "type": "Point",
                "coordinates": [
                    -73.990688,
                    40.734836
                ]
            },
            "properties": {
                "STATION": "14 ST-UNION SQ LNQR456"
            }
        },
        {
            "type": "Feature",
            "geometry": {
                "type": "Point",
                "coordinates": [
                    -73.990688,
                    40.734836
                ]
            },
            "properties": {
                "STATION": "14 ST-UNION SQ 456LNQR"
            }
        },
        {
            "type": "Feature",
            "geometry": {
                "type": "Point",
                "coordinates": [
                    -73.990688,
                    40.734836
                ]
            },
            "properties": {
                "STATION": "14 ST-UNION SQ LNRQ456"
            }
        },
        {
            "type": "Feature",
            "geometry": {
                "type": "Point",
                "coordinates": [
                    -73.990474,
                    40.699316
                ]
            },
            "properties": {
                "STATION": "HIGH ST AC"
            }
        },
        {
            "type": "Feature",
            "geometry": {
                "type": "Point",
                "coordinates": [
                    -73.990388,
                    40.620728
                ]
            },
            "properties": {
                "STATION": "18 AVE N"
            }
        },
        {
            "type": "Feature",
            "geometry": {
                "type": "Point",
                "coordinates": [
                    -73.990152,
                    40.713647
                ]
            },
            "properties": {
                "STATION": "EAST BROADWAY F"
            }
        },
        {
            "type": "Feature",
            "geometry": {
                "type": "Point",
                "coordinates": [
                    -73.990151,
                    40.692404
                ]
            },
            "properties": {
                "STATION": "BOROUGH HALL/CT 2345R"
            }
        },
        {
            "type": "Feature",
            "geometry": {
                "type": "Point",
                "coordinates": [
                    -73.990151,
                    40.692404
                ]
            },
            "properties": {
                "STATION": "BOROUGH HALL/CT R2345"
            }
        },
        {
            "type": "Feature",
            "geometry": {
                "type": "Point",
                "coordinates": [
                    -73.989873,
                    40.723291
                ]
            },
            "properties": {
                "STATION": "2 AVE F"
            }
        },
        {
            "type": "Feature",
            "geometry": {
                "type": "Point",
                "coordinates": [
                    -73.989787,
                    40.757303
                ]
            },
            "properties": {
                "STATION": "42 ST-PA BUS TE ACENQRS1237"
            }
        },
        {
            "type": "Feature",
            "geometry": {
                "type": "Point",
                "coordinates": [
                    -73.989315,
                    40.741006
                ]
            },
            "properties": {
                "STATION": "23 ST-5 AVE NR"
            }
        },
        {
            "type": "Feature",
            "geometry": {
                "type": "Point",
                "coordinates": [
                    -73.988757,
                    40.67032
                ]
            },
            "properties": {
                "STATION": "9 ST DFGMNR"
            }
        },
        {
            "type": "Feature",
            "geometry": {
                "type": "Point",
                "coordinates": [
                    -73.988757,
                    40.67032
                ]
            },
            "properties": {
                "STATION": "4 AVE DFGMNR"
            }
        },
        {
            "type": "Feature",
            "geometry": {
                "type": "Point",
                "coordinates": [
                    -73.988682,
                    40.745574
                ]
            },
            "properties": {
                "STATION": "28 ST-BROADWAY NR"
            }
        },
        {
            "type": "Feature",
            "geometry": {
                "type": "Point",
                "coordinates": [
                    -73.988113,
                    40.748931
                ]
            },
            "properties": {
                "STATION": "THIRTY THIRD ST 1"
            }
        },
        {
            "type": "Feature",
            "geometry": {
                "type": "Point",
                "coordinates": [
                    -73.987899,
                    40.749533
                ]
            },
            "properties": {
                "STATION": "34 ST-HERALD SQ BDFMNQR"
            }
        },
        {
            "type": "Feature",
            "geometry": {
                "type": "Point",
                "coordinates": [
                    -73.987813,
                    40.71838
                ]
            },
            "properties": {
                "STATION": "ESSEX ST FJMZ"
            }
        },
        {
            "type": "Feature",
            "geometry": {
                "type": "Point",
                "coordinates": [
                    -73.987813,
                    40.71838
                ]
            },
            "properties": {
                "STATION": "DELANCEY ST FJMZ"
            }
        },
        {
            "type": "Feature",
            "geometry": {
                "type": "Point",
                "coordinates": [
                    -73.987342,
                    40.692338
                ]
            },
            "properties": {
                "STATION": "JAY ST-METROTEC ACF"
            }
        },
        {
            "type": "Feature",
            "geometry": {
                "type": "Point",
                "coordinates": [
                    -73.987169,
                    40.733243
                ]
            },
            "properties": {
                "STATION": "3 AVE L"
            }
        },
        {
            "type": "Feature",
            "geometry": {
                "type": "Point",
                "coordinates": [
                    -73.986955,
                    40.597873
                ]
            },
            "properties": {
                "STATION": "25 AVE D"
            }
        },
        {
            "type": "Feature",
            "geometry": {
                "type": "Point",
                "coordinates": [
                    -73.98689,
                    40.699756
                ]
            },
            "properties": {
                "STATION": "YORK ST F"
            }
        },
        {
            "type": "Feature",
            "geometry": {
                "type": "Point",
                "coordinates": [
                    -73.986504,
                    40.755905
                ]
            },
            "properties": {
                "STATION": "42 ST-TIMES SQ 1237ACENQRS"
            }
        },
        {
            "type": "Feature",
            "geometry": {
                "type": "Point",
                "coordinates": [
                    -73.986504,
                    40.755905
                ]
            },
            "properties": {
                "STATION": "42 ST-TIMES SQ ACENQRS1237"
            }
        },
        {
            "type": "Feature",
            "geometry": {
                "type": "Point",
                "coordinates": [
                    -73.986429,
                    40.740088
                ]
            },
            "properties": {
                "STATION": "23 ST 6"
            }
        },
        {
            "type": "Feature",
            "geometry": {
                "type": "Point",
                "coordinates": [
                    -73.985989,
                    40.762439
                ]
            },
            "properties": {
                "STATION": "50 ST CE"
            }
        },
        {
            "type": "Feature",
            "geometry": {
                "type": "Point",
                "coordinates": [
                    -73.985935,
                    40.692182
                ]
            },
            "properties": {
                "STATION": "JAY ST-METROTEC R"
            }
        },
        {
            "type": "Feature",
            "geometry": {
                "type": "Point",
                "coordinates": [
                    -73.985474,
                    40.688465
                ]
            },
            "properties": {
                "STATION": "HOYT/SCHERMER ACG"
            }
        },
        {
            "type": "Feature",
            "geometry": {
                "type": "Point",
                "coordinates": [
                    -73.985088,
                    40.617373
                ]
            },
            "properties": {
                "STATION": "20 AVE N"
            }
        },
        {
            "type": "Feature",
            "geometry": {
                "type": "Point",
                "coordinates": [
                    -73.985066,
                    40.690547
                ]
            },
            "properties": {
                "STATION": "HOYT ST 23"
            }
        },
        {
            "type": "Feature",
            "geometry": {
                "type": "Point",
                "coordinates": [
                    -73.984573,
                    40.754198
                ]
            },
            "properties": {
                "STATION": "42 ST-BRYANT PK BDFM7"
            }
        },
        {
            "type": "Feature",
            "geometry": {
                "type": "Point",
                "coordinates": [
                    -73.984251,
                    40.743095
                ]
            },
            "properties": {
                "STATION": "28 ST 6"
            }
        },
        {
            "type": "Feature",
            "geometry": {
                "type": "Point",
                "coordinates": [
                    -73.984112,
                    40.760139
                ]
            },
            "properties": {
                "STATION": "49 ST-7 AVE NQR"
            }
        },
        {
            "type": "Feature",
            "geometry": {
                "type": "Point",
                "coordinates": [
                    -73.983908,
                    40.761675
                ]
            },
            "properties": {
                "STATION": "50 ST 1"
            }
        },
        {
            "type": "Feature",
            "geometry": {
                "type": "Point",
                "coordinates": [
                    -73.983629,
                    40.588879
                ]
            },
            "properties": {
                "STATION": "BAY 50 ST D"
            }
        },
        {
            "type": "Feature",
            "geometry": {
                "type": "Point",
                "coordinates": [
                    -73.983135,
                    40.677302
                ]
            },
            "properties": {
                "STATION": "UNION ST R"
            }
        },
        {
            "type": "Feature",
            "geometry": {
                "type": "Point",
                "coordinates": [
                    -73.982234,
                    40.773424
                ]
            },
            "properties": {
                "STATION": "66 ST-LINCOLN 1"
            }
        },
        {
            "type": "Feature",
            "geometry": {
                "type": "Point",
                "coordinates": [
                    -73.982009,
                    40.612006
                ]
            },
            "properties": {
                "STATION": "BAY PKY-22 AVE N"
            }
        },
        {
            "type": "Feature",
            "geometry": {
                "type": "Point",
                "coordinates": [
                    -73.981966,
                    40.753824
                ]
            },
            "properties": {
                "STATION": "5 AVE-BRYANT PK 7BDFM"
            }
        },
        {
            "type": "Feature",
            "geometry": {
                "type": "Point",
                "coordinates": [
                    -73.981912,
                    40.778575
                ]
            },
            "properties": {
                "STATION": "72 ST 123"
            }
        },
        {
            "type": "Feature",
            "geometry": {
                "type": "Point",
                "coordinates": [
                    -73.981891,
                    40.76811
                ]
            },
            "properties": {
                "STATION": "59 ST-COLUMBUS 1ABCD"
            }
        },
        {
            "type": "Feature",
            "geometry": {
                "type": "Point",
                "coordinates": [
                    -73.981891,
                    40.76811
                ]
            },
            "properties": {
                "STATION": "59 ST-COLUMBUS ABCD1"
            }
        },
        {
            "type": "Feature",
            "geometry": {
                "type": "Point",
                "coordinates": [
                    -73.981848,
                    40.690612
                ]
            },
            "properties": {
                "STATION": "DEKALB AVE BDNQR"
            }
        },
        {
            "type": "Feature",
            "geometry": {
                "type": "Point",
                "coordinates": [
                    -73.981826,
                    40.746119
                ]
            },
            "properties": {
                "STATION": "33 ST 6"
            }
        },
        {
            "type": "Feature",
            "geometry": {
                "type": "Point",
                "coordinates": [
                    -73.981719,
                    40.730901
                ]
            },
            "properties": {
                "STATION": "1 AVE L"
            }
        },
        {
            "type": "Feature",
            "geometry": {
                "type": "Point",
                "coordinates": [
                    -73.98159,
                    40.762877
                ]
            },
            "properties": {
                "STATION": "7 AVE-53 ST BDE"
            }
        },
        {
            "type": "Feature",
            "geometry": {
                "type": "Point",
                "coordinates": [
                    -73.981311,
                    40.758652
                ]
            },
            "properties": {
                "STATION": "47-50 ST-ROCK BDFM"
            }
        },
        {
            "type": "Feature",
            "geometry": {
                "type": "Point",
                "coordinates": [
                    -73.981225,
                    40.577423
                ]
            },
            "properties": {
                "STATION": "STILLWELL AVE DFNQ"
            }
        },
        {
            "type": "Feature",
            "geometry": {
                "type": "Point",
                "coordinates": [
                    -73.980668,
                    40.603967
                ]
            },
            "properties": {
                "STATION": "KINGS HIGHWAY N"
            }
        },
        {
            "type": "Feature",
            "geometry": {
                "type": "Point",
                "coordinates": [
                    -73.980646,
                    40.764755
                ]
            },
            "properties": {
                "STATION": "57 ST-7 AVE NQR"
            }
        },
        {
            "type": "Feature",
            "geometry": {
                "type": "Point",
                "coordinates": [
                    -73.980453,
                    40.688269
                ]
            },
            "properties": {
                "STATION": "NEVINS ST 2345"
            }
        },
        {
            "type": "Feature",
            "geometry": {
                "type": "Point",
                "coordinates": [
                    -73.980324,
                    40.666276
                ]
            },
            "properties": {
                "STATION": "7 AV-PARK SLOPE FG"
            }
        },
        {
            "type": "Feature",
            "geometry": {
                "type": "Point",
                "coordinates": [
                    -73.979938,
                    40.783872
                ]
            },
            "properties": {
                "STATION": "79 ST 1"
            }
        },
        {
            "type": "Feature",
            "geometry": {
                "type": "Point",
                "coordinates": [
                    -73.979541,
                    40.644039
                ]
            },
            "properties": {
                "STATION": "CHURCH AVE FG"
            }
        },
        {
            "type": "Feature",
            "geometry": {
                "type": "Point",
                "coordinates": [
                    -73.979509,
                    40.660376
                ]
            },
            "properties": {
                "STATION": "15 ST-PROSPECT FG"
            }
        },
        {
            "type": "Feature",
            "geometry": {
                "type": "Point",
                "coordinates": [
                    -73.979359,
                    40.597482
                ]
            },
            "properties": {
                "STATION": "AVE U N"
            }
        },
        {
            "type": "Feature",
            "geometry": {
                "type": "Point",
                "coordinates": [
                    -73.978243,
                    40.592676
                ]
            },
            "properties": {
                "STATION": "86 ST N"
            }
        },
        {
            "type": "Feature",
            "geometry": {
                "type": "Point",
                "coordinates": [
                    -73.978179,
                    40.63615
                ]
            },
            "properties": {
                "STATION": "DITMAS AVE F"
            }
        },
        {
            "type": "Feature",
            "geometry": {
                "type": "Point",
                "coordinates": [
                    -73.977449,
                    40.763625
                ]
            },
            "properties": {
                "STATION": "57 ST F"
            }
        },
        {
            "type": "Feature",
            "geometry": {
                "type": "Point",
                "coordinates": [
                    -73.977417,
                    40.684063
                ]
            },
            "properties": {
                "STATION": "ATLANTIC AVE 2345BDNQR"
            }
        },
        {
            "type": "Feature",
            "geometry": {
                "type": "Point",
                "coordinates": [
                    -73.977417,
                    40.684063
                ]
            },
            "properties": {
                "STATION": "ATLANTIC AVE BDNQR2345"
            }
        },
        {
            "type": "Feature",
            "geometry": {
                "type": "Point",
                "coordinates": [
                    -73.977417,
                    40.684063
                ]
            },
            "properties": {
                "STATION": "PACIFIC ST BDNQR2345"
            }
        },
        {
            "type": "Feature",
            "geometry": {
                "type": "Point",
                "coordinates": [
                    -73.977149,
                    40.629881
                ]
            },
            "properties": {
                "STATION": "18 AVE F"
            }
        },
        {
            "type": "Feature",
            "geometry": {
                "type": "Point",
                "coordinates": [
                    -73.976945,
                    40.751849
                ]
            },
            "properties": {
                "STATION": "42 ST-GRD CNTRL 4567S"
            }
        },
        {
            "type": "Feature",
            "geometry": {
                "type": "Point",
                "coordinates": [
                    -73.976398,
                    40.775545
                ]
            },
            "properties": {
                "STATION": "72 ST BC"
            }
        },
        {
            "type": "Feature",
            "geometry": {
                "type": "Point",
                "coordinates": [
                    -73.97599,
                    40.788844
                ]
            },
            "properties": {
                "STATION": "86 ST 1"
            }
        },
        {
            "type": "Feature",
            "geometry": {
                "type": "Point",
                "coordinates": [
                    -73.975925,
                    40.576152
                ]
            },
            "properties": {
                "STATION": "W 8 ST-AQUARIUM FQ"
            }
        },
        {
            "type": "Feature",
            "geometry": {
                "type": "Point",
                "coordinates": [
                    -73.975818,
                    40.650722
                ]
            },
            "properties": {
                "STATION": "FT HAMILTON PKY FG"
            }
        },
        {
            "type": "Feature",
            "geometry": {
                "type": "Point",
                "coordinates": [
                    -73.975732,
                    40.625305
                ]
            },
            "properties": {
                "STATION": "AVE I F"
            }
        },
        {
            "type": "Feature",
            "geometry": {
                "type": "Point",
                "coordinates": [
                    -73.975453,
                    40.620907
                ]
            },
            "properties": {
                "STATION": "22 AVE-BAY PKY F"
            }
        },
        {
            "type": "Feature",
            "geometry": {
                "type": "Point",
                "coordinates": [
                    -73.975346,
                    40.68713
                ]
            },
            "properties": {
                "STATION": "FULTON ST G"
            }
        },
        {
            "type": "Feature",
            "geometry": {
                "type": "Point",
                "coordinates": [
                    -73.975196,
                    40.760179
                ]
            },
            "properties": {
                "STATION": "5 AVE-53 ST EM"
            }
        },
        {
            "type": "Feature",
            "geometry": {
                "type": "Point",
                "coordinates": [
                    -73.975132,
                    40.680801
                ]
            },
            "properties": {
                "STATION": "BERGEN ST 23"
            }
        },
        {
            "type": "Feature",
            "geometry": {
                "type": "Point",
                "coordinates": [
                    -73.974531,
                    40.580992
                ]
            },
            "properties": {
                "STATION": "NEPTUNE AVE F"
            }
        },
        {
            "type": "Feature",
            "geometry": {
                "type": "Point",
                "coordinates": [
                    -73.974295,
                    40.589547
                ]
            },
            "properties": {
                "STATION": "AVE X F"
            }
        },
        {
            "type": "Feature",
            "geometry": {
                "type": "Point",
                "coordinates": [
                    -73.974166,
                    40.615174
                ]
            },
            "properties": {
                "STATION": "AVE N F"
            }
        },
        {
            "type": "Feature",
            "geometry": {
                "type": "Point",
                "coordinates": [
                    -73.973908,
                    40.68617
                ]
            },
            "properties": {
                "STATION": "LAFAYETTE AVE C"
            }
        },
        {
            "type": "Feature",
            "geometry": {
                "type": "Point",
                "coordinates": [
                    -73.973372,
                    40.764909
                ]
            },
            "properties": {
                "STATION": "5 AVE-59 ST NQR"
            }
        },
        {
            "type": "Feature",
            "geometry": {
                "type": "Point",
                "coordinates": [
                    -73.973329,
                    40.596065
                ]
            },
            "properties": {
                "STATION": "AVE U F"
            }
        },
        {
            "type": "Feature",
            "geometry": {
                "type": "Point",
                "coordinates": [
                    -73.972986,
                    40.609147
                ]
            },
            "properties": {
                "STATION": "AVE P F"
            }
        },
        {
            "type": "Feature",
            "geometry": {
                "type": "Point",
                "coordinates": [
                    -73.972514,
                    40.677172
                ]
            },
            "properties": {
                "STATION": "7 AVE BQ"
            }
        },
        {
            "type": "Feature",
            "geometry": {
                "type": "Point",
                "coordinates": [
                    -73.972363,
                    40.79388
                ]
            },
            "properties": {
                "STATION": "96 ST 123"
            }
        },
        {
            "type": "Feature",
            "geometry": {
                "type": "Point",
                "coordinates": [
                    -73.972342,
                    40.603234
                ]
            },
            "properties": {
                "STATION": "KINGS HIGHWAY F"
            }
        },
        {
            "type": "Feature",
            "geometry": {
                "type": "Point",
                "coordinates": [
                    -73.972149,
                    40.781435
                ]
            },
            "properties": {
                "STATION": "81 ST-MUSEUM BC"
            }
        },
        {
            "type": "Feature",
            "geometry": {
                "type": "Point",
                "coordinates": [
                    -73.97187,
                    40.757108
                ]
            },
            "properties": {
                "STATION": "51 ST 6"
            }
        },
        {
            "type": "Feature",
            "geometry": {
                "type": "Point",
                "coordinates": [
                    -73.971012,
                    40.675219
                ]
            },
            "properties": {
                "STATION": "GRAND ARMY PLAZ 23"
            }
        },
        {
            "type": "Feature",
            "geometry": {
                "type": "Point",
                "coordinates": [
                    -73.969102,
                    40.75753
                ]
            },
            "properties": {
                "STATION": "LEXINGTON-53 ST EM6"
            }
        },
        {
            "type": "Feature",
            "geometry": {
                "type": "Point",
                "coordinates": [
                    -73.968952,
                    40.785822
                ]
            },
            "properties": {
                "STATION": "86 ST BC"
            }
        },
        {
            "type": "Feature",
            "geometry": {
                "type": "Point",
                "coordinates": [
                    -73.968523,
                    40.576298
                ]
            },
            "properties": {
                "STATION": "OCEAN PARKWAY Q"
            }
        },
        {
            "type": "Feature",
            "geometry": {
                "type": "Point",
                "coordinates": [
                    -73.968329,
                    40.799354
                ]
            },
            "properties": {
                "STATION": "103 ST 1"
            }
        },
        {
            "type": "Feature",
            "geometry": {
                "type": "Point",
                "coordinates": [
                    -73.967686,
                    40.762796
                ]
            },
            "properties": {
                "STATION": "LEXINGTON AVE 456NQR"
            }
        },
        {
            "type": "Feature",
            "geometry": {
                "type": "Point",
                "coordinates": [
                    -73.967686,
                    40.762796
                ]
            },
            "properties": {
                "STATION": "59 ST 456NQR"
            }
        },
        {
            "type": "Feature",
            "geometry": {
                "type": "Point",
                "coordinates": [
                    -73.966742,
                    40.688123
                ]
            },
            "properties": {
                "STATION": "CLINTON-WASH AV G"
            }
        },
        {
            "type": "Feature",
            "geometry": {
                "type": "Point",
                "coordinates": [
                    -73.966742,
                    40.804032
                ]
            },
            "properties": {
                "STATION": "110 ST-CATHEDRL 1"
            }
        },
        {
            "type": "Feature",
            "geometry": {
                "type": "Point",
                "coordinates": [
                    -73.966291,
                    40.764763
                ]
            },
            "properties": {
                "STATION": "LEXINGTON AVE F"
            }
        },
        {
            "type": "Feature",
            "geometry": {
                "type": "Point",
                "coordinates": [
                    -73.965838,
                    40.683263
                ]
            },
            "properties": {
                "STATION": "CLINTON-WASH AV C"
            }
        },
        {
            "type": "Feature",
            "geometry": {
                "type": "Point",
                "coordinates": [
                    -73.964682,
                    40.791654
                ]
            },
            "properties": {
                "STATION": "96 ST BC"
            }
        },
        {
            "type": "Feature",
            "geometry": {
                "type": "Point",
                "coordinates": [
                    -73.96451,
                    40.643982
                ]
            },
            "properties": {
                "STATION": "BEVERLEY ROAD BQ"
            }
        },
        {
            "type": "Feature",
            "geometry": {
                "type": "Point",
                "coordinates": [
                    -73.96436,
                    40.672013
                ]
            },
            "properties": {
                "STATION": "EASTERN PKWY 23"
            }
        },
        {
            "type": "Feature",
            "geometry": {
                "type": "Point",
                "coordinates": [
                    -73.964124,
                    40.80819
                ]
            },
            "properties": {
                "STATION": "116 ST-COLUMBIA 1"
            }
        },
        {
            "type": "Feature",
            "geometry": {
                "type": "Point",
                "coordinates": [
                    -73.964016,
                    40.768143
                ]
            },
            "properties": {
                "STATION": "68ST-HUNTER COL 6"
            }
        },
        {
            "type": "Feature",
            "geometry": {
                "type": "Point",
                "coordinates": [
                    -73.964016,
                    40.761268
                ]
            },
            "properties": {
                "STATION": "RIT-MANHATTAN R"
            }
        },
        {
            "type": "Feature",
            "geometry": {
                "type": "Point",
                "coordinates": [
                    -73.963866,
                    40.640905
                ]
            },
            "properties": {
                "STATION": "CORTELYOU ROAD BQ"
            }
        },
        {
            "type": "Feature",
            "geometry": {
                "type": "Point",
                "coordinates": [
                    -73.962836,
                    40.650494
                ]
            },
            "properties": {
                "STATION": "CHURCH AVE BQ"
            }
        },
        {
            "type": "Feature",
            "geometry": {
                "type": "Point",
                "coordinates": [
                    -73.962793,
                    40.635059
                ]
            },
            "properties": {
                "STATION": "NEWKIRK AVE BQ"
            }
        },
        {
            "type": "Feature",
            "geometry": {
                "type": "Point",
                "coordinates": [
                    -73.962193,
                    40.661596
                ]
            },
            "properties": {
                "STATION": "PROSPECT PARK BQS"
            }
        },
        {
            "type": "Feature",
            "geometry": {
                "type": "Point",
                "coordinates": [
                    -73.961806,
                    40.577961
                ]
            },
            "properties": {
                "STATION": "BRIGHTON BEACH BQ"
            }
        },
        {
            "type": "Feature",
            "geometry": {
                "type": "Point",
                "coordinates": [
                    -73.961678,
                    40.629164
                ]
            },
            "properties": {
                "STATION": "AVE H BQ"
            }
        },
        {
            "type": "Feature",
            "geometry": {
                "type": "Point",
                "coordinates": [
                    -73.961399,
                    40.796105
                ]
            },
            "properties": {
                "STATION": "103 ST BC"
            }
        },
        {
            "type": "Feature",
            "geometry": {
                "type": "Point",
                "coordinates": [
                    -73.961227,
                    40.655053
                ]
            },
            "properties": {
                "STATION": "PARKSIDE AVE BQ"
            }
        },
        {
            "type": "Feature",
            "geometry": {
                "type": "Point",
                "coordinates": [
                    -73.960819,
                    40.625028
                ]
            },
            "properties": {
                "STATION": "AVE J BQ"
            }
        },
        {
            "type": "Feature",
            "geometry": {
                "type": "Point",
                "coordinates": [
                    -73.960025,
                    40.688855
                ]
            },
            "properties": {
                "STATION": "CLASSON AVE G"
            }
        },
        {
            "type": "Feature",
            "geometry": {
                "type": "Point",
                "coordinates": [
                    -73.959875,
                    40.773636
                ]
            },
            "properties": {
                "STATION": "77 ST 6"
            }
        },
        {
            "type": "Feature",
            "geometry": {
                "type": "Point",
                "coordinates": [
                    -73.95936,
                    40.617568
                ]
            },
            "properties": {
                "STATION": "AVE M BQ"
            }
        },
        {
            "type": "Feature",
            "geometry": {
                "type": "Point",
                "coordinates": [
                    -73.958759,
                    40.670499
                ]
            },
            "properties": {
                "STATION": "BOTANIC GARDEN S2345"
            }
        },
        {
            "type": "Feature",
            "geometry": {
                "type": "Point",
                "coordinates": [
                    -73.958395,
                    40.815596
                ]
            },
            "properties": {
                "STATION": "125 ST 1"
            }
        },
        {
            "type": "Feature",
            "geometry": {
                "type": "Point",
                "coordinates": [
                    -73.958201,
                    40.800637
                ]
            },
            "properties": {
                "STATION": "CATHEDRL-110 ST BC"
            }
        },
        {
            "type": "Feature",
            "geometry": {
                "type": "Point",
                "coordinates": [
                    -73.958051,
                    40.670711
                ]
            },
            "properties": {
                "STATION": "FRANKLIN AVE 2345S"
            }
        },
        {
            "type": "Feature",
            "geometry": {
                "type": "Point",
                "coordinates": [
                    -73.957794,
                    40.67491
                ]
            },
            "properties": {
                "STATION": "PARK PLACE S"
            }
        },
        {
            "type": "Feature",
            "geometry": {
                "type": "Point",
                "coordinates": [
                    -73.957772,
                    40.608691
                ]
            },
            "properties": {
                "STATION": "KINGS HIGHWAY BQ"
            }
        },
        {
            "type": "Feature",
            "geometry": {
                "type": "Point",
                "coordinates": [
                    -73.957751,
                    40.708377
                ]
            },
            "properties": {
                "STATION": "MARCY AVE JMZ"
            }
        },
        {
            "type": "Feature",
            "geometry": {
                "type": "Point",
                "coordinates": [
                    -73.956614,
                    40.717241
                ]
            },
            "properties": {
                "STATION": "BEDFORD AVE L"
            }
        },
        {
            "type": "Feature",
            "geometry": {
                "type": "Point",
                "coordinates": [
                    -73.956056,
                    40.681159
                ]
            },
            "properties": {
                "STATION": "FRANKLIN AVE ACS"
            }
        },
        {
            "type": "Feature",
            "geometry": {
                "type": "Point",
                "coordinates": [
                    -73.955916,
                    40.599307
                ]
            },
            "properties": {
                "STATION": "AVE U BQ"
            }
        },
        {
            "type": "Feature",
            "geometry": {
                "type": "Point",
                "coordinates": [
                    -73.955541,
                    40.779485
                ]
            },
            "properties": {
                "STATION": "86 ST 456"
            }
        },
        {
            "type": "Feature",
            "geometry": {
                "type": "Point",
                "coordinates": [
                    -73.95509,
                    40.595234
                ]
            },
            "properties": {
                "STATION": "NECK ROAD BQ"
            }
        },
        {
            "type": "Feature",
            "geometry": {
                "type": "Point",
                "coordinates": [
                    -73.954833,
                    40.805072
                ]
            },
            "properties": {
                "STATION": "116 ST BC"
            }
        },
        {
            "type": "Feature",
            "geometry": {
                "type": "Point",
                "coordinates": [
                    -73.954425,
                    40.731324
                ]
            },
            "properties": {
                "STATION": "GREENPOINT AVE G"
            }
        },
        {
            "type": "Feature",
            "geometry": {
                "type": "Point",
                "coordinates": [
                    -73.954167,
                    40.58681
                ]
            },
            "properties": {
                "STATION": "SHEEPSHEAD BAY BQ"
            }
        },
        {
            "type": "Feature",
            "geometry": {
                "type": "Point",
                "coordinates": [
                    -73.954006,
                    40.7574
                ]
            },
            "properties": {
                "STATION": "RIT-ROOSEVELT R"
            }
        },
        {
            "type": "Feature",
            "geometry": {
                "type": "Point",
                "coordinates": [
                    -73.953674,
                    40.821994
                ]
            },
            "properties": {
                "STATION": "137 ST-CITY COL 1"
            }
        },
        {
            "type": "Feature",
            "geometry": {
                "type": "Point",
                "coordinates": [
                    -73.953545,
                    40.742624
                ]
            },
            "properties": {
                "STATION": "VERNON/JACKSON 7"
            }
        },
        {
            "type": "Feature",
            "geometry": {
                "type": "Point",
                "coordinates": [
                    -73.953481,
                    40.706994
                ]
            },
            "properties": {
                "STATION": "HEWES ST JM"
            }
        },
        {
            "type": "Feature",
            "geometry": {
                "type": "Point",
                "coordinates": [
                    -73.953459,
                    40.689636
                ]
            },
            "properties": {
                "STATION": "BEDFORD/NOSTRAN G"
            }
        },
        {
            "type": "Feature",
            "geometry": {
                "type": "Point",
                "coordinates": [
                    -73.953266,
                    40.759123
                ]
            },
            "properties": {
                "STATION": "ROOSEVELT IS F"
            }
        },
        {
            "type": "Feature",
            "geometry": {
                "type": "Point",
                "coordinates": [
                    -73.952386,
                    40.811056
                ]
            },
            "properties": {
                "STATION": "125 ST ACBD"
            }
        },
        {
            "type": "Feature",
            "geometry": {
                "type": "Point",
                "coordinates": [
                    -73.951807,
                    40.79911
                ]
            },
            "properties": {
                "STATION": "110 ST-CPN 23"
            }
        },
        {
            "type": "Feature",
            "geometry": {
                "type": "Point",
                "coordinates": [
                    -73.951592,
                    40.713875
                ]
            },
            "properties": {
                "STATION": "LORIMER ST GL"
            }
        },
        {
            "type": "Feature",
            "geometry": {
                "type": "Point",
                "coordinates": [
                    -73.951592,
                    40.713875
                ]
            },
            "properties": {
                "STATION": "METROPOLITAN AV GL"
            }
        },
        {
            "type": "Feature",
            "geometry": {
                "type": "Point",
                "coordinates": [
                    -73.951271,
                    40.724608
                ]
            },
            "properties": {
                "STATION": "NASSAU AV G"
            }
        },
        {
            "type": "Feature",
            "geometry": {
                "type": "Point",
                "coordinates": [
                    -73.95097,
                    40.785822
                ]
            },
            "properties": {
                "STATION": "96 ST 6"
            }
        },
        {
            "type": "Feature",
            "geometry": {
                "type": "Point",
                "coordinates": [
                    -73.950648,
                    40.667879
                ]
            },
            "properties": {
                "STATION": "PRESIDENT ST 25"
            }
        },
        {
            "type": "Feature",
            "geometry": {
                "type": "Point",
                "coordinates": [
                    -73.950605,
                    40.662752
                ]
            },
            "properties": {
                "STATION": "STERLING ST 25"
            }
        },
        {
            "type": "Feature",
            "geometry": {
                "type": "Point",
                "coordinates": [
                    -73.950455,
                    40.669735
                ]
            },
            "properties": {
                "STATION": "NOSTRAND AVE 3"
            }
        },
        {
            "type": "Feature",
            "geometry": {
                "type": "Point",
                "coordinates": [
                    -73.950412,
                    40.826426
                ]
            },
            "properties": {
                "STATION": "145 ST 1"
            }
        },
        {
            "type": "Feature",
            "geometry": {
                "type": "Point",
                "coordinates": [
                    -73.950348,
                    40.7061
                ]
            },
            "properties": {
                "STATION": "BROADWAY G"
            }
        },
        {
            "type": "Feature",
            "geometry": {
                "type": "Point",
                "coordinates": [
                    -73.950326,
                    40.68041
                ]
            },
            "properties": {
                "STATION": "NOSTRAND AVE AC"
            }
        },
        {
            "type": "Feature",
            "geometry": {
                "type": "Point",
                "coordinates": [
                    -73.950284,
                    40.700374
                ]
            },
            "properties": {
                "STATION": "FLUSHING AVE G"
            }
        },
        {
            "type": "Feature",
            "geometry": {
                "type": "Point",
                "coordinates": [
                    -73.950198,
                    40.656648
                ]
            },
            "properties": {
                "STATION": "WINTHROP ST 25"
            }
        },
        {
            "type": "Feature",
            "geometry": {
                "type": "Point",
                "coordinates": [
                    -73.949876,
                    40.743973
                ]
            },
            "properties": {
                "STATION": "VAN ALSTON-21ST G"
            }
        },
        {
            "type": "Feature",
            "geometry": {
                "type": "Point",
                "coordinates": [
                    -73.949625,
                    40.802098
                ]
            },
            "properties": {
                "STATION": "116 ST 23"
            }
        },
        {
            "type": "Feature",
            "geometry": {
                "type": "Point",
                "coordinates": [
                    -73.949575,
                    40.650843
                ]
            },
            "properties": {
                "STATION": "CHURCH AVE 25"
            }
        },
        {
            "type": "Feature",
            "geometry": {
                "type": "Point",
                "coordinates": [
                    -73.949046,
                    40.694568
                ]
            },
            "properties": {
                "STATION": "MYRTLE-WILLOUGH G"
            }
        },
        {
            "type": "Feature",
            "geometry": {
                "type": "Point",
                "coordinates": [
                    -73.948975,
                    40.645089
                ]
            },
            "properties": {
                "STATION": "BEVERLY ROAD 25"
            }
        },
        {
            "type": "Feature",
            "geometry": {
                "type": "Point",
                "coordinates": [
                    -73.948889,
                    40.74238
                ]
            },
            "properties": {
                "STATION": "HUNTERS PT AVE 7"
            }
        },
        {
            "type": "Feature",
            "geometry": {
                "type": "Point",
                "coordinates": [
                    -73.948352,
                    40.639961
                ]
            },
            "properties": {
                "STATION": "NEWKIRK AVE 25"
            }
        },
        {
            "type": "Feature",
            "geometry": {
                "type": "Point",
                "coordinates": [
                    -73.947644,
                    40.817902
                ]
            },
            "properties": {
                "STATION": "135 ST BC"
            }
        },
        {
            "type": "Feature",
            "geometry": {
                "type": "Point",
                "coordinates": [
                    -73.947642,
                    40.632836
                ]
            },
            "properties": {
                "STATION": "FLATBUSH AVE 25"
            }
        },
        {
            "type": "Feature",
            "geometry": {
                "type": "Point",
                "coordinates": [
                    -73.947473,
                    40.790582
                ]
            },
            "properties": {
                "STATION": "103 ST 6"
            }
        },
        {
            "type": "Feature",
            "geometry": {
                "type": "Point",
                "coordinates": [
                    -73.947387,
                    40.703855
                ]
            },
            "properties": {
                "STATION": "LORIMER ST JM"
            }
        },
        {
            "type": "Feature",
            "geometry": {
                "type": "Point",
                "coordinates": [
                    -73.945906,
                    40.808076
                ]
            },
            "properties": {
                "STATION": "125 ST 23"
            }
        },
        {
            "type": "Feature",
            "geometry": {
                "type": "Point",
                "coordinates": [
                    -73.94537,
                    40.747029
                ]
            },
            "properties": {
                "STATION": "COURT SQ 7"
            }
        },
        {
            "type": "Feature",
            "geometry": {
                "type": "Point",
                "coordinates": [
                    -73.945112,
                    40.747257
                ]
            },
            "properties": {
                "STATION": "COURT SQ-23 ST EMG"
            }
        },
        {
            "type": "Feature",
            "geometry": {
                "type": "Point",
                "coordinates": [
                    -73.945112,
                    40.747257
                ]
            },
            "properties": {
                "STATION": "COURT SQ EMG"
            }
        },
        {
            "type": "Feature",
            "geometry": {
                "type": "Point",
                "coordinates": [
                    -73.944726,
                    40.833879
                ]
            },
            "properties": {
                "STATION": "157 ST 1"
            }
        },
        {
            "type": "Feature",
            "geometry": {
                "type": "Point",
                "coordinates": [
                    -73.944297,
                    40.795066
                ]
            },
            "properties": {
                "STATION": "110 ST 6"
            }
        },
        {
            "type": "Feature",
            "geometry": {
                "type": "Point",
                "coordinates": [
                    -73.944232,
                    40.824787
                ]
            },
            "properties": {
                "STATION": "145 ST ABCD"
            }
        },
        {
            "type": "Feature",
            "geometry": {
                "type": "Point",
                "coordinates": [
                    -73.944104,
                    40.71459
                ]
            },
            "properties": {
                "STATION": "GRAHAM AVE L"
            }
        },
        {
            "type": "Feature",
            "geometry": {
                "type": "Point",
                "coordinates": [
                    -73.94258,
                    40.7541
                ]
            },
            "properties": {
                "STATION": "21 ST F"
            }
        },
        {
            "type": "Feature",
            "geometry": {
                "type": "Point",
                "coordinates": [
                    -73.942173,
                    40.669409
                ]
            },
            "properties": {
                "STATION": "KINGSTON AVE 3"
            }
        },
        {
            "type": "Feature",
            "geometry": {
                "type": "Point",
                "coordinates": [
                    -73.941658,
                    40.700244
                ]
            },
            "properties": {
                "STATION": "FLUSHING AVE JM"
            }
        },
        {
            "type": "Feature",
            "geometry": {
                "type": "Point",
                "coordinates": [
                    -73.941593,
                    40.798574
                ]
            },
            "properties": {
                "STATION": "116 ST 6"
            }
        },
        {
            "type": "Feature",
            "geometry": {
                "type": "Point",
                "coordinates": [
                    -73.941486,
                    40.830551
                ]
            },
            "properties": {
                "STATION": "155 ST C"
            }
        },
        {
            "type": "Feature",
            "geometry": {
                "type": "Point",
                "coordinates": [
                    -73.940992,
                    40.814459
                ]
            },
            "properties": {
                "STATION": "135 ST 23"
            }
        },
        {
            "type": "Feature",
            "geometry": {
                "type": "Point",
                "coordinates": [
                    -73.940858,
                    40.679921
                ]
            },
            "properties": {
                "STATION": "KINGSTON-THROOP C"
            }
        },
        {
            "type": "Feature",
            "geometry": {
                "type": "Point",
                "coordinates": [
                    -73.94067,
                    40.711874
                ]
            },
            "properties": {
                "STATION": "GRAND ST L"
            }
        },
        {
            "type": "Feature",
            "geometry": {
                "type": "Point",
                "coordinates": [
                    -73.940177,
                    40.750508
                ]
            },
            "properties": {
                "STATION": "QUEENSBORO PLZ 7NQ"
            }
        },
        {
            "type": "Feature",
            "geometry": {
                "type": "Point",
                "coordinates": [
                    -73.940091,
                    40.840778
                ]
            },
            "properties": {
                "STATION": "168 ST-BROADWAY 1AC"
            }
        },
        {
            "type": "Feature",
            "geometry": {
                "type": "Point",
                "coordinates": [
                    -73.940091,
                    40.840778
                ]
            },
            "properties": {
                "STATION": "168 ST-BROADWAY AC1"
            }
        },
        {
            "type": "Feature",
            "geometry": {
                "type": "Point",
                "coordinates": [
                    -73.940005,
                    40.707889
                ]
            },
            "properties": {
                "STATION": "MONTROSE AVE L"
            }
        },
        {
            "type": "Feature",
            "geometry": {
                "type": "Point",
                "coordinates": [
                    -73.939898,
                    40.835957
                ]
            },
            "properties": {
                "STATION": "163 ST-AMSTERDM C"
            }
        },
        {
            "type": "Feature",
            "geometry": {
                "type": "Point",
                "coordinates": [
                    -73.939683,
                    40.847369
                ]
            },
            "properties": {
                "STATION": "175 ST A"
            }
        },
        {
            "type": "Feature",
            "geometry": {
                "type": "Point",
                "coordinates": [
                    -73.938632,
                    40.829934
                ]
            },
            "properties": {
                "STATION": "155 ST BD"
            }
        },
        {
            "type": "Feature",
            "geometry": {
                "type": "Point",
                "coordinates": [
                    -73.937967,
                    40.851686
                ]
            },
            "properties": {
                "STATION": "181 ST A"
            }
        },
        {
            "type": "Feature",
            "geometry": {
                "type": "Point",
                "coordinates": [
                    -73.937452,
                    40.804406
                ]
            },
            "properties": {
                "STATION": "125 ST 456"
            }
        },
        {
            "type": "Feature",
            "geometry": {
                "type": "Point",
                "coordinates": [
                    -73.937194,
                    40.748948
                ]
            },
            "properties": {
                "STATION": "QUEENS PLAZA EMR"
            }
        },
        {
            "type": "Feature",
            "geometry": {
                "type": "Point",
                "coordinates": [
                    -73.936443,
                    40.823877
                ]
            },
            "properties": {
                "STATION": "148 ST-LENOX 3"
            }
        },
        {
            "type": "Feature",
            "geometry": {
                "type": "Point",
                "coordinates": [
                    -73.936315,
                    40.820402
                ]
            },
            "properties": {
                "STATION": "145 ST 3"
            }
        },
        {
            "type": "Feature",
            "geometry": {
                "type": "Point",
                "coordinates": [
                    -73.935692,
                    40.697266
                ]
            },
            "properties": {
                "STATION": "MYRTLE AVE JMZ"
            }
        },
        {
            "type": "Feature",
            "geometry": {
                "type": "Point",
                "coordinates": [
                    -73.93419,
                    40.859022
                ]
            },
            "properties": {
                "STATION": "190 ST A"
            }
        },
        {
            "type": "Feature",
            "geometry": {
                "type": "Point",
                "coordinates": [
                    -73.933632,
                    40.849495
                ]
            },
            "properties": {
                "STATION": "181 ST 1"
            }
        },
        {
            "type": "Feature",
            "geometry": {
                "type": "Point",
                "coordinates": [
                    -73.93316,
                    40.706148
                ]
            },
            "properties": {
                "STATION": "MORGAN AVE L"
            }
        },
        {
            "type": "Feature",
            "geometry": {
                "type": "Point",
                "coordinates": [
                    -73.932967,
                    40.669279
                ]
            },
            "properties": {
                "STATION": "CROWN HTS-UTICA 34"
            }
        },
        {
            "type": "Feature",
            "geometry": {
                "type": "Point",
                "coordinates": [
                    -73.93271,
                    40.753076
                ]
            },
            "properties": {
                "STATION": "BEEBE-39 AVE NQ"
            }
        },
        {
            "type": "Feature",
            "geometry": {
                "type": "Point",
                "coordinates": [
                    -73.930993,
                    40.744558
                ]
            },
            "properties": {
                "STATION": "33 ST/RAWSON ST 7"
            }
        },
        {
            "type": "Feature",
            "geometry": {
                "type": "Point",
                "coordinates": [
                    -73.930585,
                    40.679279
                ]
            },
            "properties": {
                "STATION": "UTICA AVE AC"
            }
        },
        {
            "type": "Feature",
            "geometry": {
                "type": "Point",
                "coordinates": [
                    -73.929877,
                    40.813208
                ]
            },
            "properties": {
                "STATION": "138 ST-GR CONC 45"
            }
        },
        {
            "type": "Feature",
            "geometry": {
                "type": "Point",
                "coordinates": [
                    -73.929384,
                    40.855176
                ]
            },
            "properties": {
                "STATION": "191 ST 1"
            }
        },
        {
            "type": "Feature",
            "geometry": {
                "type": "Point",
                "coordinates": [
                    -73.929373,
                    40.756977
                ]
            },
            "properties": {
                "STATION": "WASHINGTON-36 A NQ"
            }
        },
        {
            "type": "Feature",
            "geometry": {
                "type": "Point",
                "coordinates": [
                    -73.928826,
                    40.693329
                ]
            },
            "properties": {
                "STATION": "KOSCIUSZKO ST J"
            }
        },
        {
            "type": "Feature",
            "geometry": {
                "type": "Point",
                "coordinates": [
                    -73.92874,
                    40.75202
                ]
            },
            "properties": {
                "STATION": "36 ST MR"
            }
        },
        {
            "type": "Feature",
            "geometry": {
                "type": "Point",
                "coordinates": [
                    -73.927131,
                    40.697673
                ]
            },
            "properties": {
                "STATION": "CENTRAL AVE M"
            }
        },
        {
            "type": "Feature",
            "geometry": {
                "type": "Point",
                "coordinates": [
                    -73.92698,
                    40.865286
                ]
            },
            "properties": {
                "STATION": "DYCKMAN-200 ST A"
            }
        },
        {
            "type": "Feature",
            "geometry": {
                "type": "Point",
                "coordinates": [
                    -73.926927,
                    40.818429
                ]
            },
            "properties": {
                "STATION": "149 ST-GR CONC 245"
            }
        },
        {
            "type": "Feature",
            "geometry": {
                "type": "Point",
                "coordinates": [
                    -73.926165,
                    40.810512
                ]
            },
            "properties": {
                "STATION": "138 ST-3 AVE 6"
            }
        },
        {
            "type": "Feature",
            "geometry": {
                "type": "Point",
                "coordinates": [
                    -73.925736,
                    40.827888
                ]
            },
            "properties": {
                "STATION": "161 ST-YANKEE BD4"
            }
        },
        {
            "type": "Feature",
            "geometry": {
                "type": "Point",
                "coordinates": [
                    -73.925736,
                    40.827888
                ]
            },
            "properties": {
                "STATION": "161 ST-YANKEE 4BD"
            }
        },
        {
            "type": "Feature",
            "geometry": {
                "type": "Point",
                "coordinates": [
                    -73.925575,
                    40.860523
                ]
            },
            "properties": {
                "STATION": "DYCKMAN ST 1"
            }
        },
        {
            "type": "Feature",
            "geometry": {
                "type": "Point",
                "coordinates": [
                    -73.925382,
                    40.761959
                ]
            },
            "properties": {
                "STATION": "BROADWAY-31 ST NQ"
            }
        },
        {
            "type": "Feature",
            "geometry": {
                "type": "Point",
                "coordinates": [
                    -73.923998,
                    40.743778
                ]
            },
            "properties": {
                "STATION": "40 ST-LOWERY ST 7"
            }
        },
        {
            "type": "Feature",
            "geometry": {
                "type": "Point",
                "coordinates": [
                    -73.922925,
                    40.706636
                ]
            },
            "properties": {
                "STATION": "JEFFERSON ST L"
            }
        },
        {
            "type": "Feature",
            "geometry": {
                "type": "Point",
                "coordinates": [
                    -73.922668,
                    40.664591
                ]
            },
            "properties": {
                "STATION": "SUTTER AVE 3"
            }
        },
        {
            "type": "Feature",
            "geometry": {
                "type": "Point",
                "coordinates": [
                    -73.922281,
                    40.689652
                ]
            },
            "properties": {
                "STATION": "GATES AVE JZ"
            }
        },
        {
            "type": "Feature",
            "geometry": {
                "type": "Point",
                "coordinates": [
                    -73.921423,
                    40.766843
                ]
            },
            "properties": {
                "STATION": "GRAND-30 AVE NQ"
            }
        },
        {
            "type": "Feature",
            "geometry": {
                "type": "Point",
                "coordinates": [
                    -73.92138,
                    40.835535
                ]
            },
            "properties": {
                "STATION": "167 ST 4"
            }
        },
        {
            "type": "Feature",
            "geometry": {
                "type": "Point",
                "coordinates": [
                    -73.920801,
                    40.678815
                ]
            },
            "properties": {
                "STATION": "RALPH AVE C"
            }
        },
        {
            "type": "Feature",
            "geometry": {
                "type": "Point",
                "coordinates": [
                    -73.920736,
                    40.756864
                ]
            },
            "properties": {
                "STATION": "STEINWAY ST MR"
            }
        },
        {
            "type": "Feature",
            "geometry": {
                "type": "Point",
                "coordinates": [
                    -73.919921,
                    40.868045
                ]
            },
            "properties": {
                "STATION": "INWOOD-207 ST A"
            }
        },
        {
            "type": "Feature",
            "geometry": {
                "type": "Point",
                "coordinates": [
                    -73.919685,
                    40.698666
                ]
            },
            "properties": {
                "STATION": "KNICKERBOCKER M"
            }
        },
        {
            "type": "Feature",
            "geometry": {
                "type": "Point",
                "coordinates": [
                    -73.919234,
                    40.808044
                ]
            },
            "properties": {
                "STATION": "BROOK AVE 6"
            }
        },
        {
            "type": "Feature",
            "geometry": {
                "type": "Point",
                "coordinates": [
                    -73.918719,
                    40.864653
                ]
            },
            "properties": {
                "STATION": "207 ST 1"
            }
        },
        {
            "type": "Feature",
            "geometry": {
                "type": "Point",
                "coordinates": [
                    -73.91844,
                    40.703839
                ]
            },
            "properties": {
                "STATION": "DEKALB AVE L"
            }
        },